{
"type": "FeatureCollection",
"crs": { "type": "name", "properties": { "name": "urn:ogc:def:crs:OGC:1.3:CRS84" } },
"features": [
{ "type": "Feature", "properties": { "name": "P. B. Reeves ", "address": "1803 Bond Ave.", "function": "Lodging", "dates": "1930-1958" }, "geometry": { "type": "Point", "coordinates": [ 38.608325, -90.150258 ] } },
{ "type": "Feature", "properties": { "name": "Mid-town ", "address": "2738 Bond Ave.", "function": "Lodging", "dates": "1959-1961" }, "geometry": { "type": "Point", "coordinates": [ 38.598196, -90.138974 ] } },
{ "type": "Feature", "properties": { "name": "Booker T. Washington Hotel", "address": "3930 N. Kingshighway Blvd.", "function": "Lodging", "dates": "1963" }, "geometry": { "type": "Point", "coordinates": [ 38.678204, -90.25035 ] } },
{ "type": "Feature", "properties": { "name": "Hotel DeLuxe", "address": "744 Walton Ave.", "function": "Lodging", "dates": "1949" }, "geometry": { "type": "Point", "coordinates": [ 38.65219, -90.25738 ] } },
{ "type": "Feature", "properties": { "name": "Dubois Hotel", "address": "4323 Enright Ave.", "function": "Lodging", "dates": "1930" }, "geometry": { "type": "Point", "coordinates": [ 38.649044, -90.2479 ] } },
{ "type": "Feature", "properties": { "name": "YWCA", "address": "2709 Locust St.", "function": "Lodging", "dates": "1954-1957" }, "geometry": { "type": "Point", "coordinates": [ 38.634678, -90.21641 ] } },
{ "type": "Feature", "properties": { "name": "Bell's Restaurant", "address": "933 Pendleton Ave.", "function": "Restaurant", "dates": "1949-1951" }, "geometry": { "type": "Point", "coordinates": [ 38.648952, -90.24703 ] } },
{ "type": "Feature", "properties": { "name": "Ding-Ling End", "address": "731 Leland Ave.", "function": "Restaurant", "dates": "1950-1953" }, "geometry": { "type": "Point", "coordinates": [ 38.65793, -90.30573 ] } },
{ "type": "Feature", "properties": { "name": "Lindsey's Restaurant", "address": "3805 Page Blvd.", "function": "Restaurant", "dates": "1947-1952" }, "geometry": { "type": "Point", "coordinates": [ 38.647713, -90.23149 ] } },
{ "type": "Feature", "properties": { "name": "Sara-Lou Cafe'", "address": "4069 St. Louis Ave.", "function": "Restaurant", "dates": "1959-1963" }, "geometry": { "type": "Point", "coordinates": [ 38.65988, -90.23054 ] } },
{ "type": "Feature", "properties": { "name": "Union Station (RR station)", "address": "1820 Market", "function": "Restaurant", "dates": "1952" }, "geometry": { "type": "Point", "coordinates": [ 38.62939, -90.2068 ] } },
{ "type": "Feature", "properties": { "name": "Wilke's Eat Shop", "address": "4664 Fairlin Ave.", "function": "Restaurant", "dates": "1962-1963" }, "geometry": { "type": "Point", "coordinates": [ 38.67584, -90.241295 ] } }
]
}
