{"type":"FeatureCollection","features":[{"type":"Feature","properties":{"name":"Waterloo"},"geometry":{"type":"Point","coordinates":[-90.15243530273436,38.33357743803447]}},{"type":"Feature","properties":{"name":"Columbia"},"geometry":{"type":"Point","coordinates":[-90.20256042480469,38.4428334985915]}},{"type":"Feature","properties":{"name":"Valmeyer"},"geometry":{"type":"Point","coordinates":[-90.27740478515624,38.304486462694484]}},{"type":"Feature","properties":{"name":"Festus"},"geometry":{"type":"Point","coordinates":[-90.39928436279297,38.21903166722727]}},{"type":"Feature","properties":{"name":"Arnold"},"geometry":{"type":"Point","coordinates":[-90.38040161132812,38.43288350196883]}},{"type":"Feature","properties":{"name":"Belleville"},"geometry":{"type":"Point","coordinates":[-89.9835205078125,38.51486279448153]}},{"type":"Feature","properties":{"name":"O'Fallon"},"geometry":{"type":"Point","coordinates":[-89.91142272949217,38.59004038021371]}},{"type":"Feature","properties":{"name":"Collinsville"},"geometry":{"type":"Point","coordinates":[-89.98558044433594,38.66728386136457]}}]}