{"type":"Topology","objects":{"schools":{"type":"GeometryCollection","geometries":[{"type":"Point","coordinates":[8500,6213]},{"type":"Point","properties":{"name":"The Arch Community School","Address":"2153 Salisbury St.","Type":"Parochial"},"coordinates":[9122,7530]},{"type":"Point","properties":{"name":"Carondelet Leadership Academy","Address":"7604 Michigan Ave.","Type":"Parochial"},"coordinates":[3934,0]},{"type":"Point","properties":{"name":"City Garden Montessori","Address":"1618 Tower Grove Ave.","Type":"Commercial/industrial"},"coordinates":[4445,4850]},{"type":"Point","properties":{"name":"Confluence Academies - Old North","Address":"3017 N. 13th St.","Type":"Commercial/industrial"},"coordinates":[9999,7193]},{"type":"Point","properties":{"name":"Confluence Academies - Aspire","Address":"5421 Thekla Ave.","Type":"Parochial"},"coordinates":[5349,9999]},{"type":"Point","properties":{"name":"Confluence Academies - South City","Address":"4235 S. Compton Ave.","Type":"Parochial"},"coordinates":[5864,2049]},{"type":"Point","properties":{"name":"Confluence Preparatory Academy","Address":"310 North 15th St.","Type":"Commercial/industrial"},"coordinates":[9612,5584]},{"type":"Point","properties":{"name":"EAGLE Tower Grove South","Address":"3716 Morgan Ford Rd.","Type":"Parochial"},"coordinates":[3696,2863]},{"type":"Point","properties":{"name":"EAGLE Tower Grove East","Address":"3900 S. Grand Blvd.","Type":"Parochial"},"coordinates":[5530,2529]},{"type":"Point","properties":{"name":"EAGLE Fox Park","Address":"2617 Shenandoah Ave.","Type":"Parochial"},"coordinates":[7478,4009]},{"type":"Point","properties":{"name":"EAGLE Gravois Park","Address":"3630 Ohio Ave.","Type":"Parochial"},"coordinates":[7008,2722]},{"type":"Point","properties":{"name":"Gateway Science Academy High","Address":"5049 Fyler Ave.","Type":"Commercial/industrial"},"coordinates":[2441,3524]},{"type":"Point","properties":{"name":"Gateway Science Academy Middle","Address":"5049 Fyler Ave.","Type":"Commercial/industrial"},"coordinates":[2441,3524]},{"type":"Point","properties":{"name":"Gateway Science Academy Elementary ","Address":"6576 Smiley Ave.","Type":"Parochial"},"coordinates":[0,3919]},{"type":"Point","properties":{"name":"Gateway Science Academy Elementary - South","Address":"6651 Gravois Ave.","Type":"SLPS"},"coordinates":[1777,1577]},{"type":"Point","properties":{"name":"Grand Center Arts Academy","Address":"711 N. Grand Ave.","Type":"Commercial/industrial"},"coordinates":[6777,6244]},{"type":"Point","properties":{"name":"Hawthorn Leadership School for Girls","Address":"1901 Kingshighway Blvd.","Type":"Parochial","notes":"Site was parochial, then SLPS-owned, then owned by another charter school before Hawthorn purchased it"},"coordinates":[4006,7977]},{"type":"Point","properties":{"name":"KIPP Inspire Academy","Address":"1212 N. 22nd St.","Type":"SLPS"},"coordinates":[8911,6237]},{"type":"Point","properties":{"name":"KIPP Victory Academy","Address":"955 Arcade Ave.","Type":"SLPS"},"coordinates":[2111,7562]},{"type":"Point","properties":{"name":"KIPP Triumph Academy","Address":"955 Arcade Ave.","Type":"SLPS"},"coordinates":[2111,7562]},{"type":"Point","properties":{"name":"KIPP Wisdom Academy","Address":"2647 Ohio Ave.","Type":"Parochial"},"coordinates":[7256,3786]},{"type":"Point","properties":{"name":"KIPP High School","Address":"706 N. Jefferson Ave.","Type":"Commercial/industrial"},"coordinates":[8521,5919]},{"type":"Point","properties":{"name":"La Salle","Address":"1106 N. Jefferson Ave.","Type":"Parochial"},"coordinates":[8500,6213]},{"type":"Point","properties":{"name":"Lafayette Prearatory Academy","Address":"1900 Lafayette Ave.","Type":"Parochial"},"coordinates":[8405,4400]},{"type":"Point","properties":{"name":"Lift For Life Academy","Address":"1731 South Broadway","Type":"Commercial/industrial"},"coordinates":[9643,4056]},{"type":"Point","properties":{"name":"North Side Community School","Address":"3033 N. Euclid St.","Type":"Commercial/industrial"},"coordinates":[4731,8386]},{"type":"Point","properties":{"name":"North Side Community Middle School","Address":"620 N. Grand Blvd.","Type":"Parochial"},"coordinates":[6766,6150]},{"type":"Point","properties":{"name":"Premier Charter School","Address":"5279 Fyler Ave.","Type":"Commercial/industrial"},"coordinates":[2194,3593]},{"type":"Point","properties":{"name":"St. Louis Language Immersion School - Chinese School","Address":"3740 Marine Ave.","Type":"Commercial/industrial"},"coordinates":[7757,2495]},{"type":"Point","properties":{"name":"St. Louis Language Immersion School - International School","Address":"3740 Marine Ave.","Type":"Commercial/industrial"},"coordinates":[7757,2495]},{"type":"Point","properties":{"name":"St. Louis Language Immersion School - French School","Address":"3740 Marine Ave.","Type":"Commercial/industrial"},"coordinates":[7757,2495]},{"type":"Point","properties":{"name":"St. Louis Language Immersion School - Spanish School","Address":"4011 Papin St.","Type":"Commercial/industrial"},"coordinates":[5130,5473]},{"type":"Point","properties":{"name":"St. Louis College Prep","Address":"1224 Grattan St.","Type":"SLPS"},"coordinates":[8915,4628]},{"type":"Point","properties":{"name":"The Biome School","Address":"4471 Olive St.","Type":"New construction","notes":"Constructed by another charter school in 2003"},"coordinates":[4585,6750]}]}},"arcs":[],"transform":{"scale":[0.000010554625462545267,0.000014675467546754795],"translate":[-90.3022585,38.5489819]},"bbox":[-90.3022585,38.5489819,-90.1967228,38.6957219]}