{"type": "FeatureCollection", "bbox": [-90.302834, 38.54673, -90.193283, 38.720928], "features": [{"type": "Feature", "geometry": {"type": "Point", "coordinates": [-90.243881, 38.588791]}, "properties": {"name": "Afghan Market", "address": "3740 S Grand Blvd", "zip": "63118", "chain": "Other"}}, {"type": "Feature", "geometry": {"type": "Point", "coordinates": [-90.217728, 38.660992]}, "properties": {"name": "Aldi", "address": "3616 Natural Bridge", "zip": "63107", "chain": "Aldi"}}, {"type": "Feature", "geometry": {"type": "Point", "coordinates": [-90.265671, 38.555431]}, "properties": {"name": "Aldi", "address": "3721 S. Grand Ave", "zip": "63118", "chain": "Aldi"}}, {"type": "Feature", "geometry": {"type": "Point", "coordinates": [-90.282837, 38.572861]}, "properties": {"name": "Aldi", "address": "6601 Gravois", "zip": "63116", "chain": "Aldi"}}, {"type": "Feature", "geometry": {"type": "Point", "coordinates": [-90.262932, 38.652351]}, "properties": {"name": "Aldi", "address": "702 N. Kingshighway", "zip": "63108", "chain": "Aldi"}}, {"type": "Feature", "geometry": {"type": "Point", "coordinates": [-90.240349, 38.66486]}, "properties": {"name": "Art's Super Market", "address": "2921 N. Newstead Ave", "zip": "63115", "chain": "Other"}}, {"type": "Feature", "geometry": {"type": "Point", "coordinates": [-90.230362, 38.593761]}, "properties": {"name": "Carniceria Latinoamericana", "address": "2800 Cherokee", "zip": "63118", "chain": "Other"}}, {"type": "Feature", "geometry": {"type": "Point", "coordinates": [-90.23201, 38.593894]}, "properties": {"name": "Cherokee Food", "address": "2850 Cherokee Street", "zip": "63118", "chain": "Other"}}, {"type": "Feature", "geometry": {"type": "Point", "coordinates": [-90.25644, 38.626889]}, "properties": {"name": "City Green's Produce", "address": "4260 Manchester", "zip": "63110", "chain": "Other"}}, {"type": "Feature", "geometry": {"type": "Point", "coordinates": [-90.193283, 38.629013]}, "properties": {"name": "Culinaria", "address": "314 N 9th St", "zip": "63101", "chain": "Schnucks"}}, {"type": "Feature", "geometry": {"type": "Point", "coordinates": [-90.272911, 38.616611]}, "properties": {"name": "DiGregorio's Italian foods", "address": "5200 Daggett", "zip": "63110", "chain": "Other"}}, {"type": "Feature", "geometry": {"type": "Point", "coordinates": [-90.229607, 38.594059]}, "properties": {"name": "El Torito", "address": "2753 Cherokee St", "zip": "63118", "chain": "Other"}}, {"type": "Feature", "geometry": {"type": "Point", "coordinates": [-90.208977, 38.612499]}, "properties": {"name": "Fresh Fields Foods", "address": "1500 Lafayette", "zip": "63104", "chain": "Other"}}, {"type": "Feature", "geometry": {"type": "Point", "coordinates": [-90.243988, 38.594021]}, "properties": {"name": "Grand Chinese Grocery", "address": "3469 S Grand Blvd", "zip": "63118", "chain": "Other"}}, {"type": "Feature", "geometry": {"type": "Point", "coordinates": [-90.242271, 38.60025]}, "properties": {"name": "Jay's International Food", "address": "3172 S. Grand Blvd", "zip": "63118", "chain": "Other"}}, {"type": "Feature", "geometry": {"type": "Point", "coordinates": [-90.286118, 38.67527]}, "properties": {"name": "King's Food", "address": "6116 Dr. Martin Luther King Dr", "zip": "63112", "chain": "Other"}}, {"type": "Feature", "geometry": {"type": "Point", "coordinates": [-90.302834, 38.591049]}, "properties": {"name": "LeGrand's Market", "address": "4414 Donovan Ave", "zip": "63109", "chain": "Other"}}, {"type": "Feature", "geometry": {"type": "Point", "coordinates": [-90.261046, 38.604181]}, "properties": {"name": "Local Harvest Grocery", "address": "3108 Morganford Road", "zip": "63116", "chain": "Other"}}, {"type": "Feature", "geometry": {"type": "Point", "coordinates": [-90.262352, 38.626419]}, "properties": {"name": "Manchester Market", "address": "4519 Manchester Ave", "zip": "63110", "chain": "Other"}}, {"type": "Feature", "geometry": {"type": "Point", "coordinates": [-90.24366, 38.65543]}, "properties": {"name": "Martin's Market", "address": "4324 Dr. Martin Luther King Dr", "zip": "63113", "chain": "Other"}}, {"type": "Feature", "geometry": {"type": "Point", "coordinates": [-90.2546, 38.62756]}, "properties": {"name": "N & M Market", "address": "4201 Manchester Ave", "zip": "63110", "chain": "Other"}}, {"type": "Feature", "geometry": {"type": "Point", "coordinates": [-90.244423, 38.700459]}, "properties": {"name": "Northway Market", "address": "5590 W. Florissant", "zip": "63120", "chain": "Other"}}, {"type": "Feature", "geometry": {"type": "Point", "coordinates": [-90.27565, 38.678101]}, "properties": {"name": "Price Chopper", "address": "2747 Goodfellow Blvd", "zip": "63112", "chain": "Other"}}, {"type": "Feature", "geometry": {"type": "Point", "coordinates": [-90.231751, 38.659359]}, "properties": {"name": "Regal Market", "address": "2800 N. Sarah", "zip": "63115", "chain": "Other"}}, {"type": "Feature", "geometry": {"type": "Point", "coordinates": [-90.253212, 38.619621]}, "properties": {"name": "Regal Market", "address": "4201 McRee Ave", "zip": "63110", "chain": "Other"}}, {"type": "Feature", "geometry": {"type": "Point", "coordinates": [-90.207298, 38.620209]}, "properties": {"name": "Salama's Market", "address": "1525 Chouteau Ave", "zip": "63103", "chain": "Other"}}, {"type": "Feature", "geometry": {"type": "Point", "coordinates": [-90.252243, 38.670319]}, "properties": {"name": "Salama's Market", "address": "4873 St. Louis Ave", "zip": "63115", "chain": "Other"}}, {"type": "Feature", "geometry": {"type": "Point", "coordinates": [-90.221741, 38.616138]}, "properties": {"name": "Save-A-Lot", "address": "1601 S. Jefferson", "zip": "63104", "chain": "Save-A-Lot"}}, {"type": "Feature", "geometry": {"type": "Point", "coordinates": [-90.226082, 38.592388]}, "properties": {"name": "Save-A-Lot", "address": "3427 S. Jefferson", "zip": "63118", "chain": "Save-A-Lot"}}, {"type": "Feature", "geometry": {"type": "Point", "coordinates": [-90.228203, 38.64711]}, "properties": {"name": "Save-A-Lot", "address": "3645 Page Blvd", "zip": "63113", "chain": "Save-A-Lot"}}, {"type": "Feature", "geometry": {"type": "Point", "coordinates": [-90.278442, 38.56612]}, "properties": {"name": "Save-A-Lot", "address": "4324 Loughborough Ave", "zip": "63116", "chain": "Save-A-Lot"}}, {"type": "Feature", "geometry": {"type": "Point", "coordinates": [-90.237778, 38.67067]}, "properties": {"name": "Save-A-Lot", "address": "4447 Natural Bridge Ave", "zip": "63115", "chain": "Save-A-Lot"}}, {"type": "Feature", "geometry": {"type": "Point", "coordinates": [-90.279823, 38.610111]}, "properties": {"name": "Save-A-Lot", "address": "5437 Southwest Ave", "zip": "63139", "chain": "Save-A-Lot"}}, {"type": "Feature", "geometry": {"type": "Point", "coordinates": [-90.239708, 38.720928]}, "properties": {"name": "Save-A-Lot", "address": "8960 Riverview Blvd", "zip": "63147", "chain": "Save-A-Lot"}}, {"type": "Feature", "geometry": {"type": "Point", "coordinates": [-90.206879, 38.677738]}, "properties": {"name": "Saveway Food Company", "address": "5110 N. Broadway", "zip": "63147", "chain": "Other"}}, {"type": "Feature", "geometry": {"type": "Point", "coordinates": [-90.274017, 38.6064]}, "properties": {"name": "Schnucks Arsenal", "address": "5055 Arsenal St.", "zip": "63139", "chain": "Schnucks"}}, {"type": "Feature", "geometry": {"type": "Point", "coordinates": [-90.25898, 38.678516]}, "properties": {"name": "Schnucks City Plaza", "address": "3431 Union Blvd", "zip": "63115", "chain": "Schnucks"}}, {"type": "Feature", "geometry": {"type": "Point", "coordinates": [-90.293778, 38.565571]}, "properties": {"name": "Schnucks Gravois", "address": "7450 Hampton", "zip": "63109", "chain": "Schnucks"}}, {"type": "Feature", "geometry": {"type": "Point", "coordinates": [-90.292541, 38.593117]}, "properties": {"name": "Schnucks Hampton Village", "address": "60 Hapmton Village Plz", "zip": "63109", "chain": "Schnucks"}}, {"type": "Feature", "geometry": {"type": "Point", "coordinates": [-90.247421, 38.640427]}, "properties": {"name": "Schnucks Lindell", "address": "4171 Lindell Blvd", "zip": "63108", "chain": "Schnucks"}}, {"type": "Feature", "geometry": {"type": "Point", "coordinates": [-90.262729, 38.556522]}, "properties": {"name": "Schnucks Loughborough", "address": "1020 Loughborough Ave.", "zip": "63111", "chain": "Schnucks"}}, {"type": "Feature", "geometry": {"type": "Point", "coordinates": [-90.242531, 38.594669]}, "properties": {"name": "Schnucks South City", "address": "3430 S. Grand Blvd", "zip": "63118", "chain": "Schnucks"}}, {"type": "Feature", "geometry": {"type": "Point", "coordinates": [-90.25573, 38.637844]}, "properties": {"name": "Shapiro's Market", "address": "111 S. Newstead Ave", "zip": "63108", "chain": "Other"}}, {"type": "Feature", "geometry": {"type": "Point", "coordinates": [-90.250626, 38.591659]}, "properties": {"name": "Shop n' Save", "address": "3865 Gravois Ave", "zip": "63116", "chain": "Shop 'n' Save"}}, {"type": "Feature", "geometry": {"type": "Point", "coordinates": [-90.272087, 38.590149]}, "properties": {"name": "Shop n' Save", "address": "4660 Chippewa St.", "zip": "63116", "chain": "Shop 'n' Save"}}, {"type": "Feature", "geometry": {"type": "Point", "coordinates": [-90.272009, 38.66181]}, "properties": {"name": "Shur-Sav", "address": "1301 Union Boulevard", "zip": "63130", "chain": "Other"}}, {"type": "Feature", "geometry": {"type": "Point", "coordinates": [-90.261993, 38.65802]}, "properties": {"name": "Soll's Gateway Market", "address": "1206 N. Kingshighway Blvd", "zip": "63113", "chain": "Other"}}, {"type": "Feature", "geometry": {"type": "Point", "coordinates": [-90.200233, 38.610462]}, "properties": {"name": "Soulard Farmer's Market", "address": "730 Carroll St", "zip": "63104", "chain": "Other"}}, {"type": "Feature", "geometry": {"type": "Point", "coordinates": [-90.259132, 38.54673]}, "properties": {"name": "South Public Market", "address": "7701 S. Broadway", "zip": "63111", "chain": "Other"}}, {"type": "Feature", "geometry": {"type": "Point", "coordinates": [-90.281769, 38.673019]}, "properties": {"name": "Speedway market", "address": "5870 Dr. Martin Luther King Dr", "zip": "63112", "chain": "Other"}}, {"type": "Feature", "geometry": {"type": "Point", "coordinates": [-90.235367, 38.669811]}, "properties": {"name": "St. Louis Supermarket", "address": "4331 Natural Bridge Ave", "zip": "63115", "chain": "Other"}}, {"type": "Feature", "geometry": {"type": "Point", "coordinates": [-90.264031, 38.645679]}, "properties": {"name": "Straub's", "address": "302 N. Kingshighway Blvd", "zip": "63108", "chain": "Other"}}, {"type": "Feature", "geometry": {"type": "Point", "coordinates": [-90.237281, 38.597424]}, "properties": {"name": "Taj Market", "address": "3243 Gravois", "zip": "63118", "chain": "Other"}}, {"type": "Feature", "geometry": {"type": "Point", "coordinates": [-90.241432, 38.58033]}, "properties": {"name": "Tawakal Halal Grocery", "address": "3308 Meramec St", "zip": "63118", "chain": "Other"}}, {"type": "Feature", "geometry": {"type": "Point", "coordinates": [-90.301268, 38.655828]}, "properties": {"name": "United Provisions", "address": "6241 Delmar Boulevard ", "zip": "63130", "chain": "Other"}}, {"type": "Feature", "geometry": {"type": "Point", "coordinates": [-90.211151, 38.603611]}, "properties": {"name": "Vincent's 12 Street Market", "address": "2400 S 12th St", "zip": "63104", "chain": "Other"}}, {"type": "Feature", "geometry": {"type": "Point", "coordinates": [-90.271881, 38.618179]}, "properties": {"name": "Viviano's Grocery", "address": "5139 Shaw Ave", "zip": "63110", "chain": "Other"}}]}