{"type":"Topology","objects":{"collection":{"type":"GeometryCollection","geometries":[{"type":"Point","properties":{"name":"P. B. Reeves ","address":"1803 Bond Ave.","function":"lodgings","dates":"1930-1958"},"coordinates":[9322,1266]},{"type":"Point","properties":{"name":"Mid-town ","address":"2738 Bond Ave.","function":"lodgings","dates":"1959-1961"},"coordinates":[9999,0]},{"type":"Point","properties":{"name":"Booker T. Washington Hotel","address":"3930 N. Kingshighway Blvd.","function":"lodgings","dates":1963},"coordinates":[3321,9999]},{"type":"Point","properties":{"name":"Hotel DeLuxe","address":"744 Walton Ave.","function":"lodgings","dates":1949},"coordinates":[2899,6748]},{"type":"Point","properties":{"name":"Dubois Hotel","address":"4323 Enright Ave.","function":"lodgings","dates":1930},"coordinates":[3468,6355]},{"type":"Point","properties":{"name":"YWCA","address":"2709 Locust St.","function":"lodgings","dates":"1954-1957"},"coordinates":[5356,4559]},{"type":"Point","properties":{"name":"Bell's Restaurant","address":"933 Pendleton Ave.","function":"food","dates":"1949-1951"},"coordinates":[3520,6343]},{"type":"Point","properties":{"name":"Ding-Ling End","address":"731 Leland Ave.","function":"food","dates":"1950-1953"},"coordinates":[0,7465]},{"type":"Point","properties":{"name":"Lindsey's Restaurant","address":"3805 Page Blvd.","function":"food","dates":"1947-1952"},"coordinates":[4452,6188]},{"type":"Point","properties":{"name":"Sara-Lou Cafe","address":"4069 St. Louis Ave.","function":"food","dates":"1959-1963"},"coordinates":[4509,7709]},{"type":"Point","properties":{"name":"Union Station (RR station)","address":"1820 Market","function":"food","dates":1952},"coordinates":[5932,3898]},{"type":"Point","properties":{"name":"Wilke's Eat Shop","address":"4664 Fairlin Ave.","function":"food","dates":"1962-1963"},"coordinates":[3864,9704]}]}},"arcs":[],"transform":{"scale":[0.00001667726772677191,0.000008001600160015943],"translate":[-90.30573,38.598196]},"bbox":[-90.30573,38.598196,-90.138974,38.678204]}